[{"location": "38.9015775,-77.2087283", "supermarket": [{"geometry": {"location": {"lat": 38.90434, "lng": -77.203733}}, "rating": 4.6, "vicinity": "7514 Leesburg Pike, Falls Church", "name": "Trader Joe's", "price_level": 2}, {"geometry": {"location": {"lat": 38.879586, "lng": -77.171698}}, "rating": 3.5, "vicinity": "155 Hillwood Ave, Falls Church", "name": "Halalco Supermarket", "price_level": 1}, {"geometry": {"location": {"lat": 38.903028, "lng": -77.204812}}, "rating": 3.8, "vicinity": "7511 Leesburg Pike, Falls Church", "name": "Whole Foods Market - Tysons", "price_level": 3}, {"geometry": {"location": {"lat": 38.895041, "lng": -77.189126}}, "rating": 3.8, "vicinity": "1230 W Broad St, Falls Church", "name": "Giant", "price_level": 2}, {"geometry": {"location": {"lat": 38.922612, "lng": -77.202056}}, "rating": 3.5, "vicinity": "1688 Anderson Rd, McLean", "name": "Safeway", "price_level": 2}, {"geometry": {"location": {"lat": 38.874451, "lng": -77.225051}}, "rating": 3.7, "vicinity": "8103 Lee Hwy, Falls Church", "name": "H Mart", "price_level": null}, {"geometry": {"location": {"lat": 38.875774, "lng": -77.198862}}, "rating": 2.3, "vicinity": "7397 Lee Hwy, Falls Church", "name": "Safeway", "price_level": 2}, {"geometry": {"location": {"lat": 38.891352, "lng": -77.183624}}, "rating": null, "vicinity": "110 N West St, Falls Church", "name": "7-Eleven", "price_level": 1}, {"geometry": {"location": {"lat": 38.891675, "lng": -77.186144}}, "rating": 4.4, "vicinity": "1067 W Broad St, Falls Church", "name": "Indian Spices", "price_level": null}, {"geometry": {"location": {"lat": 38.900846, "lng": -77.204236}}, "rating": null, "vicinity": "2251 Pimmit Dr, Falls Church", "name": "Fairfax Towers Grocery", "price_level": null}, {"geometry": {"location": {"lat": 38.883629, "lng": -77.172978}}, "rating": 4.3, "vicinity": "246 W Broad St, Falls Church", "name": "The Local Market", "price_level": null}, {"geometry": {"location": {"lat": 38.881662, "lng": -77.171522}}, "rating": 4.6, "vicinity": "127 S Washington St, Falls Church", "name": "Red, White & Bleu", "price_level": null}, {"geometry": {"location": {"lat": 38.901961, "lng": -77.205335}}, "rating": null, "vicinity": "2190 Pimmit Dr, Falls Church", "name": "Plaza Latina Market", "price_level": null}, {"geometry": {"location": {"lat": 38.874138, "lng": -77.237011}}, "rating": 3.8, "vicinity": "8424 Lee Hwy, Fairfax", "name": "Daily Spices", "price_level": null}, {"geometry": {"location": {"lat": 38.888179, "lng": -77.180116}}, "rating": 3.7, "vicinity": "800 W Broad St, Falls Church", "name": "Sfizi Cafe", "price_level": 2}, {"geometry": {"location": {"lat": 38.873727, "lng": -77.231117}}, "rating": null, "vicinity": "8298 Glass Alley, Fairfax", "name": "MOM's Organic Market", "price_level": 3}, {"geometry": {"location": {"lat": 38.878946, "lng": -77.180156}}, "rating": null, "vicinity": "7177 Lee Hwy, Falls Church", "name": "Priya Fashion and Spice", "price_level": null}, {"geometry": {"location": {"lat": 38.913844, "lng": -77.223091}}, "rating": null, "vicinity": "Tysons Corner", "name": "Tysons Plaza", "price_level": null}, {"geometry": {"location": {"lat": 38.894525, "lng": -77.188604}}, "rating": null, "vicinity": "1226 W Broad St, Falls Church", "name": "GNC", "price_level": 2}, {"geometry": {"location": {"lat": 38.914509, "lng": -77.219113}}, "rating": null, "vicinity": "8000 Towers Crescent Dr, Vienna", "name": "Market Place Events", "price_level": null}], "starbucks": [{"geometry": {"location": {"lat": 38.902571, "lng": -77.203876}}, "rating": 3.6, "vicinity": "7501 Leesburg Pike, Falls Church", "name": "Starbucks", "price_level": 2}, {"geometry": {"location": {"lat": 38.8945, "lng": -77.188566}}, "rating": 3.8, "vicinity": "1218 W Broad St, Falls Church", "name": "Starbucks", "price_level": 2}, {"geometry": {"location": {"lat": 38.884731, "lng": -77.174131}}, "rating": 4.2, "vicinity": "344 W Broad St, Falls Church", "name": "Starbucks", "price_level": 2}, {"geometry": {"location": {"lat": 38.923376, "lng": -77.224402}}, "rating": null, "vicinity": "2001 International Dr, McLean", "name": "Starbucks", "price_level": 2}, {"geometry": {"location": {"lat": 38.921662, "lng": -77.236275}}, "rating": 3.8, "vicinity": "8381 Leesburg Pike, Vienna", "name": "Starbucks", "price_level": 2}, {"geometry": {"location": {"lat": 38.918071, "lng": -77.221909}}, "rating": null, "vicinity": "1961 Chain Bridge Rd, McLean", "name": "Starbucks", "price_level": 2}, {"geometry": {"location": {"lat": 38.928325, "lng": -77.239272}}, "rating": 3.9, "vicinity": "8520 Leesburg Pike, Vienna", "name": "Starbucks", "price_level": 2}, {"geometry": {"location": {"lat": 38.922568, "lng": -77.202164}}, "rating": null, "vicinity": "7401 Colshire Dr, McLean", "name": "Starbucks", "price_level": 2}, {"geometry": {"location": {"lat": 38.929953, "lng": -77.227857}}, "rating": null, "vicinity": "8200 Crestwood Heights Dr, McLean", "name": "Starbucks", "price_level": 2}, {"geometry": {"location": {"lat": 38.917794, "lng": -77.219918}}, "rating": null, "vicinity": "7901 L Tysons Corner Mall, McLean", "name": "Starbucks", "price_level": 2}, {"geometry": {"location": {"lat": 38.873042, "lng": -77.229241}}, "rating": null, "vicinity": "2904 District Ave, Fairfax", "name": "Starbucks", "price_level": 2}]}, {"location": "38.900738,-77.188871", "supermarket": [{"geometry": {"location": {"lat": 38.90434, "lng": -77.203733}}, "rating": 4.6, "vicinity": "7514 Leesburg Pike, Falls Church", "name": "Trader Joe's", "price_level": 2}, {"geometry": {"location": {"lat": 38.879586, "lng": -77.171698}}, "rating": 3.5, "vicinity": "155 Hillwood Ave, Falls Church", "name": "Halalco Supermarket", "price_level": 1}, {"geometry": {"location": {"lat": 38.895041, "lng": -77.189126}}, "rating": 3.8, "vicinity": "1230 W Broad St, Falls Church", "name": "Giant", "price_level": 2}, {"geometry": {"location": {"lat": 38.903028, "lng": -77.204812}}, "rating": 3.8, "vicinity": "7511 Leesburg Pike, Falls Church", "name": "Whole Foods Market - Tysons", "price_level": 3}, {"geometry": {"location": {"lat": 38.922612, "lng": -77.202056}}, "rating": 3.5, "vicinity": "1688 Anderson Rd, McLean", "name": "Safeway", "price_level": 2}, {"geometry": {"location": {"lat": 38.891352, "lng": -77.183624}}, "rating": null, "vicinity": "110 N West St, Falls Church", "name": "7-Eleven", "price_level": 1}, {"geometry": {"location": {"lat": 38.875774, "lng": -77.198862}}, "rating": 2.3, "vicinity": "7397 Lee Hwy, Falls Church", "name": "Safeway", "price_level": 2}, {"geometry": {"location": {"lat": 38.891675, "lng": -77.186144}}, "rating": 4.4, "vicinity": "1067 W Broad St, Falls Church", "name": "Indian Spices", "price_level": null}, {"geometry": {"location": {"lat": 38.900846, "lng": -77.204236}}, "rating": null, "vicinity": "2251 Pimmit Dr, Falls Church", "name": "Fairfax Towers Grocery", "price_level": null}, {"geometry": {"location": {"lat": 38.883629, "lng": -77.172978}}, "rating": 4.3, "vicinity": "246 W Broad St, Falls Church", "name": "The Local Market", "price_level": null}, {"geometry": {"location": {"lat": 38.878946, "lng": -77.180156}}, "rating": null, "vicinity": "7177 Lee Hwy, Falls Church", "name": "Priya Fashion and Spice", "price_level": null}, {"geometry": {"location": {"lat": 38.881662, "lng": -77.171522}}, "rating": 4.6, "vicinity": "127 S Washington St, Falls Church", "name": "Red, White & Bleu", "price_level": null}, {"geometry": {"location": {"lat": 38.894525, "lng": -77.188604}}, "rating": null, "vicinity": "1226 W Broad St, Falls Church", "name": "GNC", "price_level": 2}, {"geometry": {"location": {"lat": 38.901961, "lng": -77.205335}}, "rating": null, "vicinity": "2190 Pimmit Dr, Falls Church", "name": "Plaza Latina Market", "price_level": null}, {"geometry": {"location": {"lat": 38.888179, "lng": -77.180116}}, "rating": 3.7, "vicinity": "800 W Broad St, Falls Church", "name": "Sfizi Cafe", "price_level": 2}, {"geometry": {"location": {"lat": 38.872821, "lng": -77.158714}}, "rating": null, "vicinity": "6326 Arlington Blvd, Falls Church", "name": "Grand Mart VII Inc", "price_level": null}, {"geometry": {"location": {"lat": 38.883408, "lng": -77.170539}}, "rating": null, "vicinity": "105 Park Ave, Falls Church", "name": "Seven Stars Grocery Store", "price_level": null}, {"geometry": {"location": {"lat": 38.888154, "lng": -77.160392}}, "rating": null, "vicinity": "6730 Lee Hwy, Arlington", "name": "Exxon", "price_level": null}, {"geometry": {"location": {"lat": 38.920384, "lng": -77.151251}}, "rating": null, "vicinity": "6244 Old Dominion Dr, McLean", "name": "Safeway", "price_level": 2}, {"geometry": {"location": {"lat": 38.911606, "lng": -77.222043}}, "rating": null, "vicinity": "1931 Old Gallows Rd, Vienna", "name": "7-Eleven", "price_level": 1}], "starbucks": [{"geometry": {"location": {"lat": 38.8945, "lng": -77.188566}}, "rating": 3.8, "vicinity": "1218 W Broad St, Falls Church", "name": "Starbucks", "price_level": 2}, {"geometry": {"location": {"lat": 38.902571, "lng": -77.203876}}, "rating": 3.6, "vicinity": "7501 Leesburg Pike, Falls Church", "name": "Starbucks", "price_level": 2}, {"geometry": {"location": {"lat": 38.884731, "lng": -77.174131}}, "rating": 4.2, "vicinity": "344 W Broad St, Falls Church", "name": "Starbucks", "price_level": 2}, {"geometry": {"location": {"lat": 38.923376, "lng": -77.224402}}, "rating": null, "vicinity": "2001 International Dr, McLean", "name": "Starbucks", "price_level": 2}, {"geometry": {"location": {"lat": 38.922568, "lng": -77.202164}}, "rating": null, "vicinity": "7401 Colshire Dr, McLean", "name": "Starbucks", "price_level": 2}, {"geometry": {"location": {"lat": 38.918071, "lng": -77.221909}}, "rating": null, "vicinity": "1961 Chain Bridge Rd, McLean", "name": "Starbucks", "price_level": 2}, {"geometry": {"location": {"lat": 38.917794, "lng": -77.219918}}, "rating": null, "vicinity": "7901 L Tysons Corner Mall, McLean", "name": "Starbucks", "price_level": 2}, {"geometry": {"location": {"lat": 38.919755, "lng": -77.150348}}, "rating": null, "vicinity": "6214 Old Dominion Center, McLean", "name": "Starbucks", "price_level": 2}, {"geometry": {"location": {"lat": 38.929953, "lng": -77.227857}}, "rating": null, "vicinity": "8200 Crestwood Heights Dr, McLean", "name": "Starbucks", "price_level": 2}]}, {"location": "38.900780551,-77.1890948225", "supermarket": [{"geometry": {"location": {"lat": 38.90434, "lng": -77.203733}}, "rating": 4.6, "vicinity": "7514 Leesburg Pike, Falls Church", "name": "Trader Joe's", "price_level": 2}, {"geometry": {"location": {"lat": 38.879586, "lng": -77.171698}}, "rating": 3.5, "vicinity": "155 Hillwood Ave, Falls Church", "name": "Halalco Supermarket", "price_level": 1}, {"geometry": {"location": {"lat": 38.895041, "lng": -77.189126}}, "rating": 3.8, "vicinity": "1230 W Broad St, Falls Church", "name": "Giant", "price_level": 2}, {"geometry": {"location": {"lat": 38.903028, "lng": -77.204812}}, "rating": 3.8, "vicinity": "7511 Leesburg Pike, Falls Church", "name": "Whole Foods Market - Tysons", "price_level": 3}, {"geometry": {"location": {"lat": 38.922612, "lng": -77.202056}}, "rating": 3.5, "vicinity": "1688 Anderson Rd, McLean", "name": "Safeway", "price_level": 2}, {"geometry": {"location": {"lat": 38.891352, "lng": -77.183624}}, "rating": null, "vicinity": "110 N West St, Falls Church", "name": "7-Eleven", "price_level": 1}, {"geometry": {"location": {"lat": 38.875774, "lng": -77.198862}}, "rating": 2.3, "vicinity": "7397 Lee Hwy, Falls Church", "name": "Safeway", "price_level": 2}, {"geometry": {"location": {"lat": 38.874451, "lng": -77.225051}}, "rating": 3.7, "vicinity": "8103 Lee Hwy, Falls Church", "name": "H Mart", "price_level": null}, {"geometry": {"location": {"lat": 38.891675, "lng": -77.186144}}, "rating": 4.4, "vicinity": "1067 W Broad St, Falls Church", "name": "Indian Spices", "price_level": null}, {"geometry": {"location": {"lat": 38.900846, "lng": -77.204236}}, "rating": null, "vicinity": "2251 Pimmit Dr, Falls Church", "name": "Fairfax Towers Grocery", "price_level": null}, {"geometry": {"location": {"lat": 38.883629, "lng": -77.172978}}, "rating": 4.3, "vicinity": "246 W Broad St, Falls Church", "name": "The Local Market", "price_level": null}, {"geometry": {"location": {"lat": 38.878946, "lng": -77.180156}}, "rating": null, "vicinity": "7177 Lee Hwy, Falls Church", "name": "Priya Fashion and Spice", "price_level": null}, {"geometry": {"location": {"lat": 38.881662, "lng": -77.171522}}, "rating": 4.6, "vicinity": "127 S Washington St, Falls Church", "name": "Red, White & Bleu", "price_level": null}, {"geometry": {"location": {"lat": 38.894525, "lng": -77.188604}}, "rating": null, "vicinity": "1226 W Broad St, Falls Church", "name": "GNC", "price_level": 2}, {"geometry": {"location": {"lat": 38.901961, "lng": -77.205335}}, "rating": null, "vicinity": "2190 Pimmit Dr, Falls Church", "name": "Plaza Latina Market", "price_level": null}, {"geometry": {"location": {"lat": 38.888179, "lng": -77.180116}}, "rating": 3.7, "vicinity": "800 W Broad St, Falls Church", "name": "Sfizi Cafe", "price_level": 2}, {"geometry": {"location": {"lat": 38.872821, "lng": -77.158714}}, "rating": null, "vicinity": "6326 Arlington Blvd, Falls Church", "name": "Grand Mart VII Inc", "price_level": null}, {"geometry": {"location": {"lat": 38.883408, "lng": -77.170539}}, "rating": null, "vicinity": "105 Park Ave, Falls Church", "name": "Seven Stars Grocery Store", "price_level": null}, {"geometry": {"location": {"lat": 38.888154, "lng": -77.160392}}, "rating": null, "vicinity": "6730 Lee Hwy, Arlington", "name": "Exxon", "price_level": null}, {"geometry": {"location": {"lat": 38.911606, "lng": -77.222043}}, "rating": null, "vicinity": "1931 Old Gallows Rd, Vienna", "name": "7-Eleven", "price_level": 1}], "starbucks": [{"geometry": {"location": {"lat": 38.8945, "lng": -77.188566}}, "rating": 3.8, "vicinity": "1218 W Broad St, Falls Church", "name": "Starbucks", "price_level": 2}, {"geometry": {"location": {"lat": 38.902571, "lng": -77.203876}}, "rating": 3.6, "vicinity": "7501 Leesburg Pike, Falls Church", "name": "Starbucks", "price_level": 2}, {"geometry": {"location": {"lat": 38.884731, "lng": -77.174131}}, "rating": 4.2, "vicinity": "344 W Broad St, Falls Church", "name": "Starbucks", "price_level": 2}, {"geometry": {"location": {"lat": 38.923376, "lng": -77.224402}}, "rating": null, "vicinity": "2001 International Dr, McLean", "name": "Starbucks", "price_level": 2}, {"geometry": {"location": {"lat": 38.922568, "lng": -77.202164}}, "rating": null, "vicinity": "7401 Colshire Dr, McLean", "name": "Starbucks", "price_level": 2}, {"geometry": {"location": {"lat": 38.918071, "lng": -77.221909}}, "rating": null, "vicinity": "1961 Chain Bridge Rd, McLean", "name": "Starbucks", "price_level": 2}, {"geometry": {"location": {"lat": 38.917794, "lng": -77.219918}}, "rating": null, "vicinity": "7901 L Tysons Corner Mall, McLean", "name": "Starbucks", "price_level": 2}, {"geometry": {"location": {"lat": 38.919755, "lng": -77.150348}}, "rating": null, "vicinity": "6214 Old Dominion Center, McLean", "name": "Starbucks", "price_level": 2}, {"geometry": {"location": {"lat": 38.929953, "lng": -77.227857}}, "rating": null, "vicinity": "8200 Crestwood Heights Dr, McLean", "name": "Starbucks", "price_level": 2}]}, {"location": "38.8859531663,-77.1568830199", "supermarket": [{"geometry": {"location": {"lat": 38.879586, "lng": -77.171698}}, "rating": 3.5, "vicinity": "155 Hillwood Ave, Falls Church", "name": "Halalco Supermarket", "price_level": 1}, {"geometry": {"location": {"lat": 38.885595, "lng": -77.141103}}, "rating": 4.2, "vicinity": "5863 Washington Blvd, Arlington", "name": "Westover Market", "price_level": 2}, {"geometry": {"location": {"lat": 38.895041, "lng": -77.189126}}, "rating": 3.8, "vicinity": "1230 W Broad St, Falls Church", "name": "Giant", "price_level": 2}, {"geometry": {"location": {"lat": 38.868022, "lng": -77.144855}}, "rating": 3.9, "vicinity": "6118 Arlington Blvd, Falls Church", "name": "Safeway", "price_level": 2}, {"geometry": {"location": {"lat": 38.868215, "lng": -77.150413}}, "rating": null, "vicinity": "6360 Seven Corners Center, Falls Church", "name": "SHOPPERS Food & Pharmacy", "price_level": null}, {"geometry": {"location": {"lat": 38.888154, "lng": -77.160392}}, "rating": null, "vicinity": "6730 Lee Hwy, Arlington", "name": "Exxon", "price_level": null}, {"geometry": {"location": {"lat": 38.896578, "lng": -77.132232}}, "rating": 3.3, "vicinity": "5149 Lee Hwy, Arlington", "name": "Bangla Bazar", "price_level": null}, {"geometry": {"location": {"lat": 38.89682, "lng": -77.137845}}, "rating": 4.1, "vicinity": "2425 N Harrison St, Arlington", "name": "Harris Teeter", "price_level": null}, {"geometry": {"location": {"lat": 38.891675, "lng": -77.186144}}, "rating": 4.4, "vicinity": "1067 W Broad St, Falls Church", "name": "Indian Spices", "price_level": null}, {"geometry": {"location": {"lat": 38.867508, "lng": -77.147112}}, "rating": null, "vicinity": "3011 Patrick Henry Dr, Falls Church", "name": "7-Eleven", "price_level": 1}, {"geometry": {"location": {"lat": 38.883408, "lng": -77.170539}}, "rating": null, "vicinity": "105 Park Ave, Falls Church", "name": "Seven Stars Grocery Store", "price_level": null}, {"geometry": {"location": {"lat": 38.872821, "lng": -77.158714}}, "rating": null, "vicinity": "6326 Arlington Blvd, Falls Church", "name": "Grand Mart VII Inc", "price_level": null}, {"geometry": {"location": {"lat": 38.877956, "lng": -77.123567}}, "rating": 2.8, "vicinity": "5101 Wilson Blvd, Arlington", "name": "Safeway", "price_level": 2}, {"geometry": {"location": {"lat": 38.883629, "lng": -77.172978}}, "rating": 4.3, "vicinity": "246 W Broad St, Falls Church", "name": "The Local Market", "price_level": null}, {"geometry": {"location": {"lat": 38.881662, "lng": -77.171522}}, "rating": 4.6, "vicinity": "127 S Washington St, Falls Church", "name": "Red, White & Bleu", "price_level": null}, {"geometry": {"location": {"lat": 38.888179, "lng": -77.180116}}, "rating": 3.7, "vicinity": "800 W Broad St, Falls Church", "name": "Sfizi Cafe", "price_level": 2}, {"geometry": {"location": {"lat": 38.896896, "lng": -77.125733}}, "rating": 2.8, "vicinity": "4815 Lee Hwy, Arlington", "name": "India A-1 Grocery", "price_level": null}, {"geometry": {"location": {"lat": 38.873714, "lng": -77.151442}}, "rating": null, "vicinity": "6609 Wilson Blvd, Falls Church", "name": "Vietnam Supermarket", "price_level": null}, {"geometry": {"location": {"lat": 38.872227, "lng": -77.152494}}, "rating": null, "vicinity": "6282 Arlington Blvd, Falls Church", "name": "Omaha Steaks", "price_level": null}, {"geometry": {"location": {"lat": 38.878946, "lng": -77.180156}}, "rating": null, "vicinity": "7177 Lee Hwy, Falls Church", "name": "Priya Fashion and Spice", "price_level": null}], "starbucks": [{"geometry": {"location": {"lat": 38.884731, "lng": -77.174131}}, "rating": 4.2, "vicinity": "344 W Broad St, Falls Church", "name": "Starbucks", "price_level": 2}, {"geometry": {"location": {"lat": 38.897274, "lng": -77.138143}}, "rating": 3.8, "vicinity": "2441 N Harrison St, Arlington", "name": "Starbucks", "price_level": 2}, {"geometry": {"location": {"lat": 38.869548, "lng": -77.15187}}, "rating": null, "vicinity": "6270 Seven Corners Cir, Falls Church", "name": "Starbucks", "price_level": 2}, {"geometry": {"location": {"lat": 38.896852, "lng": -77.139423}}, "rating": null, "vicinity": "2500 N Harrison St, Arlington", "name": "Starbucks", "price_level": 2}, {"geometry": {"location": {"lat": 38.8945, "lng": -77.188566}}, "rating": 3.8, "vicinity": "1218 W Broad St, Falls Church", "name": "Starbucks", "price_level": 2}, {"geometry": {"location": {"lat": 38.898444, "lng": -77.119006}}, "rating": null, "vicinity": "4526 Lee Hwy, Arlington", "name": "Starbucks", "price_level": 2}, {"geometry": {"location": {"lat": 38.867727, "lng": -77.143761}}, "rating": null, "vicinity": "6118 Arlington Blvd, Falls Church", "name": "Starbucks", "price_level": 2}, {"geometry": {"location": {"lat": 38.867963, "lng": -77.143005}}, "rating": null, "vicinity": "6100 Arlington Blvd, Falls Church", "name": "Starbucks", "price_level": 2}]}, {"location": "38.8821828738,-77.113168835", "supermarket": [{"geometry": {"location": {"lat": 38.87694, "lng": -77.11029}}, "rating": 3.8, "vicinity": "Hyde Park Plaza, 600 N Glebe Rd, Arlington", "name": "Harris Teeter", "price_level": null}, {"geometry": {"location": {"lat": 38.885956, "lng": -77.103094}}, "rating": 3.3, "vicinity": "3450 Washington Blvd, Arlington", "name": "Giant", "price_level": 2}, {"geometry": {"location": {"lat": 38.885595, "lng": -77.141103}}, "rating": 4.2, "vicinity": "5863 Washington Blvd, Arlington", "name": "Westover Market", "price_level": 2}, {"geometry": {"location": {"lat": 38.877956, "lng": -77.123567}}, "rating": 2.8, "vicinity": "5101 Wilson Blvd, Arlington", "name": "Safeway", "price_level": 2}, {"geometry": {"location": {"lat": 38.886663, "lng": -77.094759}}, "rating": 4.2, "vicinity": "1109 N Highland St, Arlington", "name": "Trader Joe's", "price_level": 2}, {"geometry": {"location": {"lat": 38.87926, "lng": -77.11016}}, "rating": null, "vicinity": "4238 Wilson Blvd, Arlington", "name": "GNC", "price_level": 2}, {"geometry": {"location": {"lat": 38.88237, "lng": -77.111503}}, "rating": null, "vicinity": "4223 N Fairfax Dr, Arlington", "name": "7-Eleven", "price_level": 1}, {"geometry": {"location": {"lat": 38.880401, "lng": -77.106712}}, "rating": null, "vicinity": "820 N Pollard St, Arlington", "name": "Arlington Nutrition Corners", "price_level": null}, {"geometry": {"location": {"lat": 38.889116, "lng": -77.091039}}, "rating": 3.5, "vicinity": "2700 Wilson Blvd, Arlington", "name": "Whole Foods Market - Arlington", "price_level": 3}, {"geometry": {"location": {"lat": 38.885421, "lng": -77.112341}}, "rating": 4, "vicinity": "1144 N Stuart St, Arlington", "name": "Arlington Market \"KEGS TO GO\"", "price_level": null}, {"geometry": {"location": {"lat": 38.882222, "lng": -77.105749}}, "rating": null, "vicinity": "901 N Pollard St, Arlington", "name": "Ballston Place Gourmet", "price_level": 1}, {"geometry": {"location": {"lat": 38.898444, "lng": -77.11834}}, "rating": 4.2, "vicinity": "4508 Lee Hwy, Arlington", "name": "Arrowine & Cheese", "price_level": 3}, {"geometry": {"location": {"lat": 38.859569, "lng": -77.102145}}, "rating": null, "vicinity": "950 S George Mason Dr, Arlington", "name": "Food Star Supermarket", "price_level": null}, {"geometry": {"location": {"lat": 38.896751, "lng": -77.108945}}, "rating": null, "vicinity": "4040 Lee Hwy, Arlington", "name": "International Wine & Beverage", "price_level": null}, {"geometry": {"location": {"lat": 38.882882, "lng": -77.103531}}, "rating": null, "vicinity": "901 N Nelson St, Arlington", "name": "Metro Cafe and Gourmet", "price_level": 1}, {"geometry": {"location": {"lat": 38.89137, "lng": -77.086034}}, "rating": null, "vicinity": "2201 Wilson Blvd, Arlington", "name": "Euro Market", "price_level": 1}, {"geometry": {"location": {"lat": 38.880744, "lng": -77.090764}}, "rating": 4.5, "vicinity": "2700 N Pershing Dr, Arlington", "name": "European Foods Import-Export", "price_level": null}, {"geometry": {"location": {"lat": 38.896744, "lng": -77.095984}}, "rating": 3.3, "vicinity": "3115 Lee Hwy, Arlington", "name": "Giant", "price_level": 2}, {"geometry": {"location": {"lat": 38.895871, "lng": -77.104561}}, "rating": null, "vicinity": "3610 Lee Hwy, Arlington", "name": "Philippine Oriental Market", "price_level": null}, {"geometry": {"location": {"lat": 38.896578, "lng": -77.132232}}, "rating": 3.3, "vicinity": "5149 Lee Hwy, Arlington", "name": "Bangla Bazar", "price_level": null}], "starbucks": [{"geometry": {"location": {"lat": 38.880607, "lng": -77.11436}}, "rating": null, "vicinity": "801 N Glebe Rd, Arlington", "name": "Starbucks", "price_level": 2}, {"geometry": {"location": {"lat": 38.883016, "lng": -77.10365}}, "rating": 4, "vicinity": "901 N Nelson St, Arlington", "name": "Starbucks", "price_level": 2}, {"geometry": {"location": {"lat": 38.879244, "lng": -77.111213}}, "rating": null, "vicinity": "4238 Wilson Blvd, Arlington", "name": "Starbucks", "price_level": 2}, {"geometry": {"location": {"lat": 38.888458, "lng": -77.090838}}, "rating": 3.8, "vicinity": "2690 Clarendon Blvd, Arlington", "name": "Starbucks Coffee", "price_level": 2}, {"geometry": {"location": {"lat": 38.896464, "lng": -77.096668}}, "rating": null, "vicinity": "3125 Lee Hwy, Arlington", "name": "Starbucks", "price_level": 2}, {"geometry": {"location": {"lat": 38.898444, "lng": -77.119006}}, "rating": null, "vicinity": "4526 Lee Hwy, Arlington", "name": "Starbucks", "price_level": 2}, {"geometry": {"location": {"lat": 38.897274, "lng": -77.138143}}, "rating": 3.8, "vicinity": "2441 N Harrison St, Arlington", "name": "Starbucks", "price_level": 2}, {"geometry": {"location": {"lat": 38.890077, "lng": -77.085907}}, "rating": null, "vicinity": "2200 Clarendon Blvd, Arlington", "name": "Starbucks", "price_level": 2}, {"geometry": {"location": {"lat": 38.896852, "lng": -77.139423}}, "rating": null, "vicinity": "2500 N Harrison St, Arlington", "name": "Starbucks", "price_level": 2}, {"geometry": {"location": {"lat": 38.85363, "lng": -77.12892}}, "rating": null, "vicinity": "5821 Crossroads Cir, Falls Church", "name": "Starbucks", "price_level": 2}, {"geometry": {"location": {"lat": 38.867963, "lng": -77.143005}}, "rating": null, "vicinity": "6100 Arlington Blvd, Falls Church", "name": "Starbucks", "price_level": 2}, {"geometry": {"location": {"lat": 38.867727, "lng": -77.143761}}, "rating": null, "vicinity": "6118 Arlington Blvd, Falls Church", "name": "Starbucks", "price_level": 2}, {"geometry": {"location": {"lat": 38.894056, "lng": -77.074056}}, "rating": null, "vicinity": "1501 17th St N, Roslyn", "name": "Starbucks", "price_level": 2}, {"geometry": {"location": {"lat": 38.894958, "lng": -77.075436}}, "rating": null, "vicinity": "1525 Wilson Blvd, Arlington", "name": "Starbucks", "price_level": 2}, {"geometry": {"location": {"lat": 38.869548, "lng": -77.15187}}, "rating": null, "vicinity": "6270 Seven Corners Cir, Falls Church", "name": "Starbucks", "price_level": 2}]}, {"location": "38.8760852,-77.1083964", "supermarket": [{"geometry": {"location": {"lat": 38.87694, "lng": -77.11029}}, "rating": 3.8, "vicinity": "Hyde Park Plaza, 600 N Glebe Rd, Arlington", "name": "Harris Teeter", "price_level": null}, {"geometry": {"location": {"lat": 38.885956, "lng": -77.103094}}, "rating": 3.3, "vicinity": "3450 Washington Blvd, Arlington", "name": "Giant", "price_level": 2}, {"geometry": {"location": {"lat": 38.885595, "lng": -77.141103}}, "rating": 4.2, "vicinity": "5863 Washington Blvd, Arlington", "name": "Westover Market", "price_level": 2}, {"geometry": {"location": {"lat": 38.889116, "lng": -77.091039}}, "rating": 3.5, "vicinity": "2700 Wilson Blvd, Arlington", "name": "Whole Foods Market - Arlington", "price_level": 3}, {"geometry": {"location": {"lat": 38.859569, "lng": -77.102145}}, "rating": null, "vicinity": "950 S George Mason Dr, Arlington", "name": "Food Star Supermarket", "price_level": null}, {"geometry": {"location": {"lat": 38.877956, "lng": -77.123567}}, "rating": 2.8, "vicinity": "5101 Wilson Blvd, Arlington", "name": "Safeway", "price_level": 2}, {"geometry": {"location": {"lat": 38.883722, "lng": -77.103004}}, "rating": null, "vicinity": "3503 N Fairfax Dr, Arlington", "name": "7-ELEVEN", "price_level": 1}, {"geometry": {"location": {"lat": 38.880401, "lng": -77.106712}}, "rating": null, "vicinity": "820 N Pollard St, Arlington", "name": "Arlington Nutrition Corners", "price_level": null}, {"geometry": {"location": {"lat": 38.87926, "lng": -77.11016}}, "rating": null, "vicinity": "4238 Wilson Blvd, Arlington", "name": "GNC", "price_level": 2}, {"geometry": {"location": {"lat": 38.882222, "lng": -77.105749}}, "rating": null, "vicinity": "901 N Pollard St, Arlington", "name": "Ballston Place Gourmet", "price_level": 1}, {"geometry": {"location": {"lat": 38.885421, "lng": -77.112341}}, "rating": 4, "vicinity": "1144 N Stuart St, Arlington", "name": "Arlington Market \"KEGS TO GO\"", "price_level": null}, {"geometry": {"location": {"lat": 38.898444, "lng": -77.11834}}, "rating": 4.2, "vicinity": "4508 Lee Hwy, Arlington", "name": "Arrowine & Cheese", "price_level": 3}, {"geometry": {"location": {"lat": 38.886663, "lng": -77.094759}}, "rating": 4.2, "vicinity": "1109 N Highland St, Arlington", "name": "Trader Joe's", "price_level": 2}, {"geometry": {"location": {"lat": 38.873915, "lng": -77.105732}}, "rating": null, "vicinity": "300 N Glebe Rd, Arlington", "name": "Glebe Market", "price_level": null}, {"geometry": {"location": {"lat": 38.880744, "lng": -77.090764}}, "rating": 4.5, "vicinity": "2700 N Pershing Dr, Arlington", "name": "European Foods Import-Export", "price_level": null}, {"geometry": {"location": {"lat": 38.882882, "lng": -77.103531}}, "rating": null, "vicinity": "901 N Nelson St, Arlington", "name": "Metro Cafe and Gourmet", "price_level": 1}, {"geometry": {"location": {"lat": 38.89137, "lng": -77.086034}}, "rating": null, "vicinity": "2201 Wilson Blvd, Arlington", "name": "Euro Market", "price_level": 1}, {"geometry": {"location": {"lat": 38.896751, "lng": -77.108945}}, "rating": null, "vicinity": "4040 Lee Hwy, Arlington", "name": "International Wine & Beverage", "price_level": null}, {"geometry": {"location": {"lat": 38.872111, "lng": -77.101923}}, "rating": null, "vicinity": "85 N Glebe Rd, Arlington", "name": "El Encanto Monserrate", "price_level": 2}, {"geometry": {"location": {"lat": 38.86747, "lng": -77.117313}}, "rating": null, "vicinity": "4815 1st St N, Arlington", "name": "Fiesta Oriental Store", "price_level": null}], "starbucks": [{"geometry": {"location": {"lat": 38.883016, "lng": -77.10365}}, "rating": 4, "vicinity": "901 N Nelson St, Arlington", "name": "Starbucks", "price_level": 2}, {"geometry": {"location": {"lat": 38.880607, "lng": -77.11436}}, "rating": null, "vicinity": "801 N Glebe Rd, Arlington", "name": "Starbucks", "price_level": 2}, {"geometry": {"location": {"lat": 38.888458, "lng": -77.090838}}, "rating": 3.8, "vicinity": "2690 Clarendon Blvd, Arlington", "name": "Starbucks Coffee", "price_level": 2}, {"geometry": {"location": {"lat": 38.879244, "lng": -77.111213}}, "rating": null, "vicinity": "4238 Wilson Blvd, Arlington", "name": "Starbucks", "price_level": 2}, {"geometry": {"location": {"lat": 38.896464, "lng": -77.096668}}, "rating": null, "vicinity": "3125 Lee Hwy, Arlington", "name": "Starbucks", "price_level": 2}, {"geometry": {"location": {"lat": 38.890077, "lng": -77.085907}}, "rating": null, "vicinity": "2200 Clarendon Blvd, Arlington", "name": "Starbucks", "price_level": 2}, {"geometry": {"location": {"lat": 38.898444, "lng": -77.119006}}, "rating": null, "vicinity": "4526 Lee Hwy, Arlington", "name": "Starbucks", "price_level": 2}, {"geometry": {"location": {"lat": 38.897274, "lng": -77.138143}}, "rating": 3.8, "vicinity": "2441 N Harrison St, Arlington", "name": "Starbucks", "price_level": 2}, {"geometry": {"location": {"lat": 38.85363, "lng": -77.12892}}, "rating": null, "vicinity": "5821 Crossroads Cir, Falls Church", "name": "Starbucks", "price_level": 2}, {"geometry": {"location": {"lat": 38.894056, "lng": -77.074056}}, "rating": null, "vicinity": "1501 17th St N, Roslyn", "name": "Starbucks", "price_level": 2}, {"geometry": {"location": {"lat": 38.894958, "lng": -77.075436}}, "rating": null, "vicinity": "1525 Wilson Blvd, Arlington", "name": "Starbucks", "price_level": 2}, {"geometry": {"location": {"lat": 38.896852, "lng": -77.139423}}, "rating": null, "vicinity": "2500 N Harrison St, Arlington", "name": "Starbucks", "price_level": 2}, {"geometry": {"location": {"lat": 38.847802, "lng": -77.120485}}, "rating": null, "vicinity": "3544 S Jefferson St #A, Bailey's Crossroads", "name": "Starbucks", "price_level": 2}, {"geometry": {"location": {"lat": 38.867963, "lng": -77.143005}}, "rating": null, "vicinity": "6100 Arlington Blvd, Falls Church", "name": "Starbucks", "price_level": 2}, {"geometry": {"location": {"lat": 38.867727, "lng": -77.143761}}, "rating": null, "vicinity": "6118 Arlington Blvd, Falls Church", "name": "Starbucks", "price_level": 2}, {"geometry": {"location": {"lat": 38.895921, "lng": -77.070687}}, "rating": null, "vicinity": "1735 N Lynn St #20, Arlington", "name": "Starbucks", "price_level": 2}]}]